店铺名称,店铺具体地址,店铺具体坐标.纬度,店铺具体坐标.经度,店铺所在地区,店铺所在城市,店铺所在省份,店铺类别
兴业银行武汉金银湖社区支行,环湖中路176号庭瑞新汉口二期7栋17号商铺1-2层,30.658024,114.222472,东西湖区,武汉市,湖北省,金融保险服务;银行;银行
兴业银行24小时自助银行,马池西路与二号路交叉口东北40米,30.658025,114.222335,东西湖区,武汉市,湖北省,金融保险服务;自动提款机;兴业银行ATM
中国工商银行(马池中路支行),马池中路9号,30.656692,114.221486,东西湖区,武汉市,湖北省,金融保险服务;银行;中国工商银行
中国农业银行24小时自助银行(外环东路),马池路武汉轻工大学金银湖校区,30.654377,114.222652,东西湖区,武汉市,湖北省,金融保险服务;自动提款机;中国农业银行ATM
保险社区服务中心,马池中路与马池西路交叉口西北120米,30.656945,114.221014,东西湖区,武汉市,湖北省,金融保险服务;金融保险服务机构;金融保险机构
招商银行(武汉金银潭支行),将军路街办事处金银潭大道1号永旺梦乐城金银潭店1层181号,30.649895,114.237346,东西湖区,武汉市,湖北省,金融保险服务;银行;招商银行
招商银行ATM(永旺梦乐城),将军路街办事处金银潭大道1号永旺梦乐城金银潭店1层181号,30.649846,114.237402,东西湖区,武汉市,湖北省,金融保险服务;自动提款机;招商银行ATM
交通银行(武汉金银湖支行),金银湖马池路三江航天银湖湾1栋,30.649481,114.222119,东西湖区,武汉市,湖北省,金融保险服务;银行;交通银行
交通银行24小时自助银行(武汉金银湖支行),金银湖三江马池路航天银湖湾1栋附近,30.649461,114.222144,东西湖区,武汉市,湖北省,金融保险服务;自动提款机;交通银行ATM
汉口银行(金银潭支行),康居五路18号金银潭广场F1层,30.649947,114.243327,东西湖区,武汉市,湖北省,金融保险服务;银行;银行
邻里金融,金银潭广场东北门旁(金银潭地铁站B2口步行50米),30.649897,114.243375,东西湖区,武汉市,湖北省,金融保险服务;金融保险服务机构;金融保险机构
汉口银行ATM(金银潭支行),康居五路城市便捷酒店(金银潭地铁站店),30.649802,114.243384,东西湖区,武汉市,湖北省,金融保险服务;自动提款机;自动提款机
兴业银行24小时自助银行,金银潭地铁站B2口步行50米,30.650136,114.243719,东西湖区,武汉市,湖北省,金融保险服务;自动提款机;兴业银行ATM
中国光大银行24小时自助银行(金银潭社区支行),金银潭广场东北门旁(金银潭地铁站B2口步行60米),30.649771,114.243436,东西湖区,武汉市,湖北省,金融保险服务;自动提款机;中国光大银行ATM
中国光大银行(金银潭社区支行),金银潭广场东北门旁(金银潭地铁站B2口步行70米),30.649694,114.243412,东西湖区,武汉市,湖北省,金融保险服务;银行;中国光大银行
兴业银行(常青金银潭社区支行),康居五路与金银潭大道辅路交叉口东南60米,30.650139,114.243844,东西湖区,武汉市,湖北省,金融保险服务;银行;兴业银行
中国农业银行(常青花园支行),常青花园学府北路53号四小区旁,30.644952,114.237018,东西湖区,武汉市,湖北省,金融保险服务;银行;中国农业银行
中国农业银行24小时自助银行,常青花园常青花园四小区商网2号门面,30.644919,114.236977,东西湖区,武汉市,湖北省,金融保险服务;自动提款机;中国农业银行ATM
中国邮政储蓄银行24小时自助银行(学府北路营业所),学府北路55号附近,30.644746,114.236713,东西湖区,武汉市,湖北省,金融保险服务;自动提款机;中国邮政储蓄银行ATM
中国邮政储蓄银行(学府北路营业所),学府北路45号,30.644743,114.236709,东西湖区,武汉市,湖北省,金融保险服务;银行;中国邮政储蓄银行
民生银行常青花园金融便民店,学府北路与康居三路交叉口北40米,30.644564,114.236458,东西湖区,武汉市,湖北省,金融保险服务;金融保险服务机构;金融保险机构
中国邮政24小时自助银行服务(学府北路营业所),常青花园四小区东南门西南260米,30.643948,114.236018,东西湖区,武汉市,湖北省,金融保险服务;自动提款机;自动提款机
中国工商银行24小时自助银行(常青花园支行)(装修中),学府北路37号,30.643894,114.235988,东西湖区,武汉市,湖北省,金融保险服务;自动提款机;中国工商银行ATM
中国工商银行(常青花园支行),常青花园学府北路37号,30.643818,114.235933,东西湖区,武汉市,湖北省,金融保险服务;银行;中国工商银行
中国银行ATM(常青北路),常青北路240-1号,30.637933,114.23117,东西湖区,武汉市,湖北省,金融保险服务;自动提款机;中国银行ATM
国元证券,常青花园新区街道武汉常青花园武商量贩店十二楼,30.63949,114.239008,东西湖区,武汉市,湖北省,金融保险服务;证券公司;证券公司
武汉市将军路资产管理有限公司,将军一路将军新村-3期,30.652801,114.252735,东西湖区,武汉市,湖北省,金融保险服务;金融保险服务机构;金融保险机构
中国银行(武汉青年支行),常青花园常青北路240-1号,30.637805,114.231153,东西湖区,武汉市,湖北省,金融保险服务;银行;中国银行
招商银行24小时自助银行(武汉常青花园社区支行),学府南路116号(轻工大学地铁站C口步行240米),30.638197,114.234626,东西湖区,武汉市,湖北省,金融保险服务;自动提款机;招商银行ATM
招商银行(常青花园社区支行),学府南路116号(轻工大学地铁站A口步行250米),30.638149,114.234575,东西湖区,武汉市,湖北省,金融保险服务;银行;招商银行
中国农业银行24小时自助银行(将军路支行),将军一路,30.652106,114.252715,东西湖区,武汉市,湖北省,金融保险服务;自动提款机;中国农业银行ATM
中国农业银行(武汉将军路支行),将军新村西1门旁,30.652102,114.25273,东西湖区,武汉市,湖北省,金融保险服务;银行;中国农业银行
国元证券常青花园花园中路证券营业部,常青花园新区街道管理委员会常青花园花园中路8区1号12楼,30.639328,114.239438,东西湖区,武汉市,湖北省,金融保险服务;证券公司;证券营业厅
中国建设银行24小时自助银行(常青花园支行),常青花园中路117号附7号,30.639732,114.240735,东西湖区,武汉市,湖北省,金融保险服务;自动提款机;中国建设银行ATM
武汉农村商业银行(将军路支行),将军一路将军新村二期6号楼1楼,30.651894,114.252861,东西湖区,武汉市,湖北省,金融保险服务;银行;农村商业银行
中国建设银行(常青花园支行),常青花园中路117附7号(简朴寨旁),30.639667,114.240671,东西湖区,武汉市,湖北省,金融保险服务;银行;中国建设银行
联合融泰硬币自循环专业服务网点(中国建设银行武汉常青花园支行),常青花园中路117号附8号,30.639686,114.240796,东西湖区,武汉市,湖北省,金融保险服务;自动提款机;自动提款机
武汉农村商业银行24小时自助银行(将军路支行),将军路198号附10号,30.651713,114.253036,东西湖区,武汉市,湖北省,金融保险服务;自动提款机;农村商业银行ATM
渤海银行(武汉常青支行),常青花园中路90号附10号,30.638678,114.2391,东西湖区,武汉市,湖北省,金融保险服务;银行;银行
武汉农村商业银行,常青花园中路与公园环路交叉口东120米,30.638679,114.239448,东西湖区,武汉市,湖北省,金融保险服务;银行;农村商业银行
渤海银行24小时自助银行,公园环路与学府侧路交叉口东100米,30.638562,114.239185,东西湖区,武汉市,湖北省,金融保险服务;自动提款机;自动提款机
湖北银行24小时自助银行(武汉常青花园支行),常青花园中路90号附22号,30.638841,114.239951,东西湖区,武汉市,湖北省,金融保险服务;自动提款机;自动提款机
汉口银行24小时自助银行(常青花园支行),常青花园中路117-1号附近,30.638884,114.240259,东西湖区,武汉市,湖北省,金融保险服务;自动提款机;自动提款机
湖北银行(武汉常青花园支行),常青花园二分之一中心Z2栋,30.638778,114.240048,东西湖区,武汉市,湖北省,金融保险服务;银行;银行
邻里金融,常青花园八号地块B区Z2栋1-2层商4/商5号,30.638789,114.240158,东西湖区,武汉市,湖北省,金融保险服务;金融保险服务机构;金融保险机构
中国民生银行(常青社区支行),常青花园中路Z3-17号,30.639054,114.240832,东西湖区,武汉市,湖北省,金融保险服务;银行;中国民生银行
汉口银行(常青花园支行),常青花园新区街道常青花园八号地块B区Z2栋1-2层商4/商5号,30.638832,114.240316,东西湖区,武汉市,湖北省,金融保险服务;银行;银行
中国民生银行24小时自助银行(武汉工业学院北门北支行),常青花园地铁站B1口步行240米,30.639004,114.24078,东西湖区,武汉市,湖北省,金融保险服务;自动提款机;中国民生银行ATM
中国工商银行24小时自助银行(常青花园中路支行),常青花园中路z3-17号附近,30.639023,114.240859,东西湖区,武汉市,湖北省,金融保险服务;自动提款机;中国工商银行ATM
中国工商银行(常青花园中路支行),常青花园中路92号附2号,30.639011,114.240836,东西湖区,武汉市,湖北省,金融保险服务;银行;中国工商银行
中国邮政储蓄银行24小时自助银行(常青花园营业所),学府南路70号(轻工大学地铁站C口步行410米),30.636745,114.235002,东西湖区,武汉市,湖北省,金融保险服务;自动提款机;中国邮政储蓄银行ATM
中国邮政储蓄银行(常青花园营业所),华中科技大学同济医学院附属普爱医院西南门西北110米,30.636709,114.235032,东西湖区,武汉市,湖北省,金融保险服务;银行;中国邮政储蓄银行
中国农业银行24小时自助银行(康居二路),学府南路68号武汉轻工大学(学府南路)附近,30.636993,114.23709,东西湖区,武汉市,湖北省,金融保险服务;自动提款机;中国农业银行ATM
上海浦东发展银行,常青花园康居二路1号附13号,30.635654,114.233227,东西湖区,武汉市,湖北省,金融保险服务;银行;上海浦东发展银行
浦发银行24小时自助银行,康居二路25号,30.635629,114.233209,东西湖区,武汉市,湖北省,金融保险服务;自动提款机;上海浦东发展银行ATM
交通银行ATM(公园南路),公园南路5号(常青花园地铁站D口步行250米),30.639408,114.245891,东西湖区,武汉市,湖北省,金融保险服务;自动提款机;交通银行ATM
中国建设银行(金山支行),常青花园新区街道管理委员会康居二路2号,30.634926,114.232389,东西湖区,武汉市,湖北省,金融保险服务;银行;中国建设银行
中国建设银行24小时自助银行(武汉金山支行),康居二路2号,30.634768,114.232391,东西湖区,武汉市,湖北省,金融保险服务;自动提款机;中国建设银行ATM
中国邮政储蓄银行24小时自助银行(将军路支行),将军路198号附14号,30.649375,114.255923,东西湖区,武汉市,湖北省,金融保险服务;自动提款机;中国邮政储蓄银行ATM
中国邮政储蓄银行(将军路邮政所),将军路53号附3号,30.649437,114.256054,东西湖区,武汉市,湖北省,金融保险服务;银行;中国邮政储蓄银行
阳光保险(香樟一路店),常青花园香樟一路9号附19号,30.634143,114.235814,东西湖区,武汉市,湖北省,金融保险服务;保险公司;保险公司
兴业银行(丽景湾社区支行),金南一路卧龙丽景湾蓝山苑7栋N单元,30.633311,114.222665,东西湖区,武汉市,湖北省,金融保险服务;银行;兴业银行
兴业银行24小时自助银行(丽景湾社区支行),金南一路卧龙丽景湾蓝山苑7栋N单元,30.63331,114.222658,东西湖区,武汉市,湖北省,金融保险服务;自动提款机;兴业银行ATM
中国邮政储蓄银行(东方马城支行),金南一路5-9号(园博园北地铁站F口步行270米),30.632636,114.224376,东西湖区,武汉市,湖北省,金融保险服务;银行;中国邮政储蓄银行
中国邮政储蓄银行24小时自助银行,金南一路5-9号(园博园北地铁站F口步行270米),30.632607,114.224427,东西湖区,武汉市,湖北省,金融保险服务;自动提款机;中国邮政储蓄银行ATM
湖北银行(将军路社区支行),将军一路翠林雅居18号,30.645678,114.256739,东西湖区,武汉市,湖北省,金融保险服务;银行;银行
湖北银行24小时自助银行(将军路社区支行),翠林雅居西南2门旁,30.645638,114.256737,东西湖区,武汉市,湖北省,金融保险服务;自动提款机;自动提款机
武汉市东西湖平安保险(欧亚广场店),金银湖路185号贝斯特广场3A楼,30.640137,114.207066,东西湖区,武汉市,湖北省,金融保险服务;保险公司;保险公司
泰康人寿,金山大道185号欧亚广场写字楼33楼,30.640099,114.207095,东西湖区,武汉市,湖北省,金融保险服务;金融保险服务机构;金融保险机构
招商银行(武汉金银湖支行),金银湖路20号武汉欧亚会展国际酒店1层,30.640094,114.206151,东西湖区,武汉市,湖北省,金融保险服务;银行;招商银行
招商银行24小时自助银行(武汉金银湖支行),金银湖路20号武汉欧亚会展国际酒店1层,30.640131,114.206067,东西湖区,武汉市,湖北省,金融保险服务;自动提款机;招商银行ATM
中国平安指定合作定损点,将军三路与将军四路交叉口西北160米,30.650445,114.26257,东西湖区,武汉市,湖北省,金融保险服务;金融保险服务机构;金融保险机构
中国银行(中小企业支行),金银湖路18号财富大厦1-2层,30.636903,114.205535,东西湖区,武汉市,湖北省,金融保险服务;银行;中国银行
中国银行24小时自助银行(金银湖路),金银湖路18号财富大厦F2层,30.636886,114.205503,东西湖区,武汉市,湖北省,金融保险服务;自动提款机;中国银行ATM
湖北银行(武汉临空港开发区支行),金银湖路15号武汉海关附二楼,30.637684,114.204313,东西湖区,武汉市,湖北省,金融保险服务;银行;银行
中国银行24小时自助银行(常青支行),万景橘苑西北3门旁,30.632865,114.250701,江汉区,武汉市,湖北省,金融保险服务;自动提款机;中国银行ATM
中国银行(武汉常青支行),汉兴街街道新湾路78号,30.632828,114.250705,江汉区,武汉市,湖北省,金融保险服务;银行;中国银行
招商银行24小时自助银行(航达自助银行),鑫桥三路8号,30.631335,114.20891,东西湖区,武汉市,湖北省,金融保险服务;自动提款机;招商银行ATM
人可威诚投资公司,金银湖南三街3附42号附近,30.632665,114.206703,东西湖区,武汉市,湖北省,金融保险服务;金融保险服务机构;金融保险机构
中国建设银行24小时自助银行(金银湖东二路),武汉航达航空科技发展有限公司西门北160米,30.631251,114.208861,东西湖区,武汉市,湖北省,金融保险服务;自动提款机;中国建设银行ATM
中国光大银行24小时自助银行(常青南园社区支行),常青南园北区东南门东140米,30.629759,114.247574,江汉区,武汉市,湖北省,金融保险服务;自动提款机;中国光大银行ATM
汉口银行长港路支行,长港路347号,30.632948,114.256166,江汉区,武汉市,湖北省,金融保险服务;银行;银行
中国建设银行(常青南园支行),新湾二路88号(长港路地铁站G口步行50米),30.627246,114.246243,江汉区,武汉市,湖北省,金融保险服务;银行;中国建设银行
邻里金融,星连星幼儿园西北门东北50米,30.633031,114.256455,江汉区,武汉市,湖北省,金融保险服务;金融保险服务机构;金融保险机构
华夏银行24小时自助银行(武汉江汉支行),长青路常宁里特1号,30.624978,114.238698,江汉区,武汉市,湖北省,金融保险服务;自动提款机;华夏银行ATM
武汉农村银行ATM,新湾二路与常青五路交叉口北40米(长港路地铁站G口旁),30.627145,114.246136,江汉区,武汉市,湖北省,金融保险服务;自动提款机;自动提款机
汉口银行24小时自助银行(长港路支行),星连星幼儿园西北门旁,30.632947,114.256483,江汉区,武汉市,湖北省,金融保险服务;自动提款机;自动提款机
中国建设银行24小时自助银行(武汉常青五路支行),新世界·常青南园南区东南门西160米,30.62717,114.246356,江汉区,武汉市,湖北省,金融保险服务;自动提款机;中国建设银行ATM
华夏银行(武汉江汉支行),常青路常宁里特1号台银大厦1层,30.624901,114.23876,江汉区,武汉市,湖北省,金融保险服务;银行;华夏银行
中国邮政储蓄银行(春兰街营业所),跃进家园A区春兰街86号,30.643752,114.266114,江岸区,武汉市,湖北省,金融保险服务;银行;中国邮政储蓄银行
车贷,长港路地铁站G口步行60米,30.627137,114.246885,江汉区,武汉市,湖北省,金融保险服务;金融保险服务机构;金融保险机构
招商银行(长港路社区支行),长港路地铁F出口直行50米常青五路常青南园正门1层,30.627272,114.247312,江汉区,武汉市,湖北省,金融保险服务;银行;招商银行
招商银行24小时自助银行(长港路社区支行),长港路地铁F出口直行50米常青五路常青南园正门1层,30.627266,114.247314,江汉区,武汉市,湖北省,金融保险服务;自动提款机;招商银行ATM
中国邮政储蓄银行24小时自助银行,,30.64379,114.26619,江岸区,武汉市,湖北省,金融保险服务;自动提款机;中国邮政储蓄银行ATM
中国工商银行24小时自助银行(武汉移动支行)(装修中),金色雅园金涛苑西北1门旁(长港路地铁站F口旁),30.626793,114.24673,江汉区,武汉市,湖北省,金融保险服务;自动提款机;中国工商银行ATM
中国工商银行(移动支行),常青一路88号金色雅园C区1栋1-2层,30.626786,114.24672,江汉区,武汉市,湖北省,金融保险服务;银行;中国工商银行
武汉临空港投资集团公司,金银湖街金银湖东一路8号(金银湖市民文体中心),30.629591,114.206517,东西湖区,武汉市,湖北省,金融保险服务;金融保险服务机构;金融保险机构
交通银行24小时自助银行(常青五路),常青五路64附近(市委党校门口),30.628725,114.253223,江汉区,武汉市,湖北省,金融保险服务;自动提款机;交通银行ATM
中国农业银行24小时自助银行(姑嫂树支行),姑嫂树路46号(杨汊湖地铁站D2口步行390米),30.633234,114.259985,江汉区,武汉市,湖北省,金融保险服务;自动提款机;中国农业银行ATM
中国农业银行(武汉姑嫂树支行),姑嫂树路38号江花苑1楼,30.63322,114.259952,江汉区,武汉市,湖北省,金融保险服务;银行;中国农业银行
浦发银行(武汉常青支行),常青三路66号长港路地铁站d出口,30.624998,114.246408,江汉区,武汉市,湖北省,金融保险服务;银行;上海浦东发展银行
浦发银行24小时自助银行(常青支行),常青三路66号(长港路地铁站D口旁),30.62496,114.246337,江汉区,武汉市,湖北省,金融保险服务;自动提款机;上海浦东发展银行ATM
中国农业银行(民航东路支行),常青三路20-1号(长港路地铁站E口步行180米),30.625545,114.248773,江汉区,武汉市,湖北省,金融保险服务;银行;中国农业银行
中国农业银行24小时自助银行(民航东路支行),常青三路20-1号(长港路地铁站E口步行200米),30.625612,114.248957,江汉区,武汉市,湖北省,金融保险服务;自动提款机;中国农业银行ATM
中邮证券有限责任公司湖北分公司,汉兴街道江汉经济开发区江旺路22号湖北邮政生产指挥中心十六楼,30.621267,114.230988,江汉区,武汉市,湖北省,金融保险服务;证券公司;证券公司
中国工商银行(武汉金色园支行),新湾二路特1号附近(长港路地铁站E口步行100米),30.624421,114.247258,江汉区,武汉市,湖北省,金融保险服务;银行;中国工商银行
中国工商银行ATM(新湾二路自助银行),长港路地铁站E口步行100米,30.624385,114.247254,江汉区,武汉市,湖北省,金融保险服务;自动提款机;中国工商银行ATM
中邮人寿保险股份有限公司湖北分公司,常青街江旺路22号邮政通信大楼F1层,30.620886,114.230506,江汉区,武汉市,湖北省,金融保险服务;保险公司;保险公司
中国邮政储蓄银行24小时自助银行(江旺路营业所),常青街办事处常青街江旺路22号邮政通信大楼,30.620862,114.230264,江汉区,武汉市,湖北省,金融保险服务;自动提款机;中国邮政储蓄银行ATM
中国邮政储蓄银行(江旺路营业所),发展四路,30.620755,114.230304,江汉区,武汉市,湖北省,金融保险服务;银行;中国邮政储蓄银行
中国邮政储蓄银行(杨汊湖营业所),常青二垸163号,30.628655,114.256716,江汉区,武汉市,湖北省,金融保险服务;银行;中国邮政储蓄银行
武汉农村商业银行24小时自助银行(杨汊湖支行),姑嫂树路与S19机场二高速出口交叉口西南220米,30.630284,114.25903,江汉区,武汉市,湖北省,金融保险服务;自动提款机;农村商业银行ATM
中国建设银行24小时自助银行(金银湖支行),金银湖南街裕亚银湖城-南苑,30.628716,114.202397,东西湖区,武汉市,湖北省,金融保险服务;自动提款机;中国建设银行ATM
中国建设银行(武汉金银湖支行),金银湖路银湖御品四号楼5-6号商铺,30.62868,114.202377,东西湖区,武汉市,湖北省,金融保险服务;银行;中国建设银行
中国邮政储蓄银行24小时自助银行(杨汊湖营业所),常青二垸163号,30.628565,114.25679,江汉区,武汉市,湖北省,金融保险服务;自动提款机;中国邮政储蓄银行ATM
太平保险事故车辆定损点,江达路与发展三路交叉口东北120米,30.619958,114.234786,江汉区,武汉市,湖北省,金融保险服务;保险公司;中国太平洋保险
汉口银行(汉口里支行),古田街道园博园汉口里商业街,30.619871,114.22525,硚口区,武汉市,湖北省,金融保险服务;金融保险服务机构;金融保险机构
汉口银行(红旗渠路支行),红旗渠路94号(长港路地铁站E口步行350米),30.622501,114.248204,江汉区,武汉市,湖北省,金融保险服务;银行;银行
景宸投资,城华路与雪莲路交叉口东80米,30.620947,114.216753,硚口区,武汉市,湖北省,金融保险服务;金融保险服务机构;金融保险机构
中国民生银行24小时自助银行(阳光花园社区支行),阳光花园东北门北50米,30.626288,114.255576,江汉区,武汉市,湖北省,金融保险服务;自动提款机;中国民生银行ATM
中国民生银行(阳光花园社区支行),新湾五路111号,30.626176,114.255619,江汉区,武汉市,湖北省,金融保险服务;银行;中国民生银行
汉口银行24小时自助银行(红旗渠路支行),长港路地铁站E口步行360米,30.622512,114.248253,江汉区,武汉市,湖北省,金融保险服务;自动提款机;自动提款机
中汇唐元,红旗渠路与新湾五路交叉口西240米,30.624428,114.253822,江汉区,武汉市,湖北省,金融保险服务;金融保险服务机构;金融保险机构
武汉农村商业银行(迎宾路支行),常青路128号,30.619848,114.243802,江汉区,武汉市,湖北省,金融保险服务;银行;农村商业银行
武汉农村商业银行24小时自助银行(迎宾路支行),常青路128号,30.619836,114.243853,江汉区,武汉市,湖北省,金融保险服务;自动提款机;农村商业银行ATM
中国邮政储蓄银行(红旗渠路支行),汉兴街办事处红旗渠路28号,30.624637,114.255895,江汉区,武汉市,湖北省,金融保险服务;银行;中国邮政储蓄银行
中国邮政储蓄银行24小时自助银行(红旗渠路营业所),红旗渠路166号,30.624625,114.255925,江汉区,武汉市,湖北省,金融保险服务;自动提款机;中国邮政储蓄银行ATM
兴业银行(汉口花园社区支行),秋桂街19号附41号,30.636205,114.269636,江岸区,武汉市,湖北省,金融保险服务;银行;兴业银行
兴业银行24小时自助银行(吉和昌大厦2号楼南),江达路汉兴都市工业园,30.617519,114.23299,江汉区,武汉市,湖北省,金融保险服务;自动提款机;兴业银行ATM
中国邮政储蓄银行(城华路营业所),紫润明园南区六栋1城华路,30.620754,114.209966,硚口区,武汉市,湖北省,金融保险服务;银行;中国邮政储蓄银行
中国邮政储蓄银行24小时自助银行(城华路营业所),紫润明园南区北2门旁,30.620757,114.209926,硚口区,武汉市,湖北省,金融保险服务;自动提款机;中国邮政储蓄银行ATM
汉口银行ATM(福星城社区支行),常青一路福星惠誉·福星城-北区,30.62014,114.247698,江汉区,武汉市,湖北省,金融保险服务;自动提款机;自动提款机
汉口银行(福星城社区支行),汉兴街办事处常青一路福星惠誉福星城北区6栋商铺一层,30.620103,114.247645,江汉区,武汉市,湖北省,金融保险服务;银行;银行
武汉农村商业银行(城华路支行),长丰村城中村改造K8地块华润翡翠城二期商业1栋1层17-23号,30.62131,114.208165,硚口区,武汉市,湖北省,金融保险服务;银行;银行
湖北金霖兴信用管理有限公司,宏图路与盘龙大道交叉口西南160米,30.674604,114.274307,东西湖区,武汉市,湖北省,公司企业;公司;公司|金融保险服务;金融保险服务机构;金融保险机构
中国建设银行(武汉城华路支行),长丰街道城华路10号翡翠邻里二期1号楼商铺-13,30.621288,114.207595,硚口区,武汉市,湖北省,金融保险服务;银行;中国建设银行
中国工商银行(新华家园支行),华苑小区红玫苑234栋1层,30.628423,114.263387,江汉区,武汉市,湖北省,金融保险服务;银行;中国工商银行
中国工商银行24小时自助银行(武汉新华家园支行)(装修中),姑嫂树路华苑小区,30.628357,114.263427,江汉区,武汉市,湖北省,金融保险服务;自动提款机;中国工商银行ATM
中国工商银行天然气充值办理点,姑嫂树路华苑小区(石桥地铁站B口步行390米),30.628341,114.263408,江汉区,武汉市,湖北省,金融保险服务;金融保险服务机构;金融保险机构
武汉农村商业银行(塔子支行),和谐大道连湖路69号,30.641955,114.274352,江岸区,武汉市,湖北省,金融保险服务;银行;农村商业银行
中国工商银行24小时自助银行(常青路支行),常青路112附近,30.618735,114.24514,江汉区,武汉市,湖北省,金融保险服务;自动提款机;中国工商银行ATM
中衡保险公估股份有限公司湖北分公司,现代企业城A1栋1302,30.672839,114.275435,东西湖区,武汉市,湖北省,金融保险服务;金融保险服务机构;金融保险机构
多恩投资公司,宏图路金银潭现代企业城B2栋14楼,30.675364,114.274273,东西湖区,武汉市,湖北省,金融保险服务;金融保险服务机构;金融保险机构
中国工商银行(武汉常青路支行),常青一路2号福星城2期7号楼56-57号,30.61869,114.24526,江汉区,武汉市,湖北省,金融保险服务;银行;中国工商银行
中国建设银行(武汉丰太支行),红旗渠路178号附4号,30.62604,114.261051,江汉区,武汉市,湖北省,金融保险服务;银行;中国建设银行
中国工商银行24小时自助银行(武汉宏图大道支行),武汉嘉禾医院东南门东50米,30.672937,114.275818,东西湖区,武汉市,湖北省,金融保险服务;自动提款机;中国工商银行ATM
中国工商银行(武汉宏图大道支行),宏图路33号金银潭现代企业城A1栋1楼7-8号房,30.67296,114.27582,东西湖区,武汉市,湖北省,金融保险服务;银行;中国工商银行
湖北银行武汉前进社区支行(暂停营业),红旗渠路与双华路交叉口西南40米,30.626269,114.261889,江汉区,武汉市,湖北省,金融保险服务;银行;银行
中国银行(汉口花园支行),后湖大道19号附1号,30.634692,114.270961,江岸区,武汉市,湖北省,金融保险服务;银行;中国银行
中国建设银行(汉口花园支行),后湖大道21附1附近,30.634826,114.27112,江岸区,武汉市,湖北省,金融保险服务;银行;中国建设银行
中国建设银行24小时自助银行(汉口花园支行),后湖大道21号附1号,30.634974,114.271374,江岸区,武汉市,湖北省,金融保险服务;自动提款机;中国建设银行ATM
中国光大银行24小时自助银行(汉口支行),姑嫂树路15号(石桥地铁站F口步行360米),30.627386,114.264101,江汉区,武汉市,湖北省,金融保险服务;自动提款机;中国光大银行ATM
中国光大银行(汉口支行),汉兴街办事处姑嫂树路15号,30.627377,114.26418,江汉区,武汉市,湖北省,金融保险服务;银行;中国光大银行
招商银行(红旗渠路社区支行),红旗渠路178-23号,30.626713,114.26339,江汉区,武汉市,湖北省,金融保险服务;银行;招商银行
招商银行24小时自助银行(红旗渠路社区支行),红旗渠路178-23号(石桥地铁站F口步行470米),30.626714,114.263396,江汉区,武汉市,湖北省,金融保险服务;自动提款机;招商银行ATM
中国邮政储蓄银行24小时自助银行(汉口花园支行),后湖大道21附6-附7号,30.635543,114.272571,江岸区,武汉市,湖北省,金融保险服务;自动提款机;中国邮政储蓄银行ATM
中国邮政储蓄银行(汉口花园支行),后湖大道21附6-附7号,30.635571,114.272652,江岸区,武汉市,湖北省,金融保险服务;银行;中国邮政储蓄银行
中国农业银行24小时自助银行(新华支行),站前路特1号,30.624025,114.260612,江汉区,武汉市,湖北省,金融保险服务;自动提款机;中国农业银行ATM
中国农业银行(新华支行),站前北路特1号,30.624018,114.260649,江汉区,武汉市,湖北省,金融保险服务;银行;中国农业银行
湖北方便停车投资有限公司,秋桂街与连湖路交叉口西南80米,30.639239,114.275291,江岸区,武汉市,湖北省,金融保险服务;金融保险服务机构;金融保险机构
中国农业银行(金银潭支行),宏图路8号武汉客厅A栋1层A107商铺,30.672813,114.277906,东西湖区,武汉市,湖北省,金融保险服务;银行;中国农业银行
中国农业银行24小时自助银行,宏图大道8号(宏图大道地铁站B口步行230米),30.672777,114.277945,东西湖区,武汉市,湖北省,金融保险服务;自动提款机;中国农业银行ATM
长江证券武汉新华路证券营业部,常青一路218号新唐万科广场2层2-35、2-36号,30.623426,114.261287,江汉区,武汉市,湖北省,金融保险服务;证券公司;证券公司
中国银行(武汉新华家园支行),新唐万科广场1-25A,30.623682,114.262481,江汉区,武汉市,湖北省,金融保险服务;银行;中国银行
平安银行(武汉后湖支行),健美街1号附7、8、9、10、11,30.650133,114.280762,江岸区,武汉市,湖北省,金融保险服务;银行;平安银行
中国民生银行,凌云金湖家园E区东北侧100米,30.634059,114.185964,东西湖区,武汉市,湖北省,金融保险服务;银行;中国民生银行
国任财产保险股份有限公司汉口支公司,南国北都2号公寓1701(石桥地铁站F口步行270米),30.627068,114.266997,江汉区,武汉市,湖北省,金融保险服务;保险公司;保险公司
鄂广云投,塔子湖越秀星汇君泊B1栋20楼,30.649082,114.281083,江岸区,武汉市,湖北省,金融保险服务;金融保险服务机构;金融保险机构
邻里金融,金珠港湾南1门旁,30.628721,114.189684,东西湖区,武汉市,湖北省,金融保险服务;金融保险服务机构;金融保险机构
金承财税,武汉客厅慕金文岸3楼C区,30.671489,114.280237,东西湖区,武汉市,湖北省,金融保险服务;金融保险服务机构;金融保险机构
汉口银行(金银湖社区支行),金银湖南街1号附15号,30.628735,114.189656,东西湖区,武汉市,湖北省,金融保险服务;银行;银行
卓尔诚投资有限公司,金银潭宏图路8号武汉客厅卓尔四季公寓H栋27楼,30.670634,114.280909,东西湖区,武汉市,湖北省,金融保险服务;金融保险服务机构;金融保险机构
中国建设银行(武汉天合园支行),塔子湖街道塔子湖东路21号富强天合园一楼,30.642062,114.280126,江岸区,武汉市,湖北省,金融保险服务;银行;中国建设银行
中国建设银行24小时自助银行,塔子湖东路21号富强天合园前行五百米,30.642068,114.280129,江岸区,武汉市,湖北省,金融保险服务;自动提款机;中国建设银行ATM
车管保险,丰硕北路与悦海路交叉口东北200米,30.622019,114.195833,硚口区,武汉市,湖北省,金融保险服务;金融保险服务机构;金融保险机构